$GPGGA,171313.00,5850.0618194,N,00546.5144358,E,1,29,0.51,583.4929,M,43.9081,M,,*5C
$GNGSA,M,3,19,14,03,01,22,08,17,02,32,,,,0.87,0.51,0.71,1*02
$GNGSA,M,3,77,86,87,71,78,79,72,85,,,,,0.87,0.51,0.71,2*0D
$GNGSA,M,3,03,24,33,26,31,23,07,,,,,,0.87,0.51,0.71,3*07
$GNGSA,M,3,20,29,30,35,24,,,,,,,,0.87,0.51,0.71,4*0F
$GNZDA,171313.00,08,04,2025,00,00*77
$GNVTG,275.515,T,272.660,M,116.7275,N,216.1794,K,A*34
$GNGST,171313.00,0.718,0.366,0.264,62.261,0.289,0.347,0.559*79
$GNGFA,171313.00,6.7,9.4,0.366,0.264,62.261,0.559,,SCV*3C
$GPGGA,171314.00,5850.0656903,N,00546.4526985,E,1,29,0.51,583.7643,M,43.9081,M,,*5C
$GNGSA,M,3,19,14,03,01,22,08,17,02,32,,,,0.87,0.51,0.71,1*02
$GNGSA,M,3,77,86,87,71,78,79,72,85,,,,,0.87,0.51,0.71,2*0D
$GNGSA,M,3,03,24,33,26,31,23,07,,,,,,0.87,0.51,0.71,3*07
$GNGSA,M,3,20,29,30,35,24,,,,,,,,0.87,0.51,0.71,4*0F
$GNZDA,171314.00,08,04,2025,00,00*70
$GNVTG,278.257,T,275.403,M,116.0875,N,214.9941,K,A*39
$GNGST,171314.00,0.718,0.365,0.264,62.186,0.289,0.346,0.559*76
$GNGFA,171314.00,6.7,9.3,0.365,0.264,62.186,0.559,,SCV*35
$GPGGA,171315.00,5850.0710611,N,00546.3918576,E,1,30,0.49,583.6310,M,43.9081,M,,*57
$GNGSA,M,3,19,14,03,01,22,08,17,02,32,,,,0.85,0.49,0.69,1*00
$GNGSA,M,3,77,86,87,71,78,79,72,85,,,,,0.85,0.49,0.69,2*0F
$GNGSA,M,3,03,24,33,26,31,23,07,,,,,,0.85,0.49,0.69,3*05
$GNGSA,M,3,20,29,30,35,24,41,,,,,,,0.85,0.49,0.69,4*08
$GNZDA,171315.00,08,04,2025,00,00*71
$GNVTG,281.032,T,278.179,M,115.2869,N,213.5114,K,A*34
$GNGST,171315.00,0.726,0.364,0.270,61.603,0.294,0.345,0.567*75
$GNGFA,171315.00,6.4,9.3,0.364,0.270,61.603,0.567,,SCV*37
$GPGGA,171316.00,5850.0779727,N,00546.3319811,E,1,31,0.47,583.4275,M,43.9082,M,,*54
$GNGSA,M,3,19,14,03,01,22,08,17,02,32,,,,0.84,0.47,0.69,1*0F
$GNGSA,M,3,77,86,87,71,78,79,72,85,,,,,0.84,0.47,0.69,2*00
$GNGSA,M,3,08,03,24,33,26,31,23,07,,,,,0.84,0.47,0.69,3*02
$GNGSA,M,3,20,29,30,35,24,41,,,,,,,0.84,0.47,0.69,4*07
$GNZDA,171316.00,08,04,2025,00,00*72
$GNVTG,283.962,T,281.109,M,114.6570,N,212.3448,K,A*30
$GNGST,171316.00,0.720,0.349,0.271,59.466,0.293,0.331,0.568*7F
$GNGFA,171316.00,5.7,9.3,0.349,0.271,59.466,0.568,,SCV*3F
$GPGGA,171317.00,5850.0865638,N,00546.2736406,E,1,32,0.47,583.7943,M,43.9083,M,,*55
$GNGSA,M,3,19,14,03,01,22,08,17,02,32,,,,0.83,0.47,0.68,1*09
$GNGSA,M,3,77,86,87,71,78,79,72,85,,,,,0.83,0.47,0.68,2*06
$GNGSA,M,3,08,03,24,33,26,31,23,07,,,,,0.83,0.47,0.68,3*04
$GNGSA,M,3,20,29,30,35,32,24,41,,,,,,0.83,0.47,0.68,4*00
$GNZDA,171317.00,08,04,2025,00,00*73
$GNVTG,286.927,T,284.074,M,114.0113,N,211.1489,K,A*31
$GNGST,171317.00,0.840,0.384,0.323,60.400,0.339,0.370,0.673*77
$GNGFA,171317.00,4.9,8.4,0.384,0.323,60.400,0.673,,SCV*33
$GPGGA,171318.00,5850.0964877,N,00546.2159722,E,1,32,0.47,584.1694,M,43.9084,M,,*56
$GNGSA,M,3,19,14,03,01,22,08,17,02,32,,,,0.83,0.47,0.68,1*09
$GNGSA,M,3,77,86,87,71,78,79,72,85,,,,,0.83,0.47,0.68,2*06
$GNGSA,M,3,08,03,24,33,26,31,23,07,,,,,0.83,0.47,0.68,3*04
$GNGSA,M,3,20,29,30,35,32,24,41,,,,,,0.83,0.47,0.68,4*00
$GNZDA,171318.00,08,04,2025,00,00*7C
$GNVTG,289.751,T,286.898,M,113.4075,N,210.0307,K,A*3A
$GNGST,171318.00,0.838,0.384,0.322,60.476,0.338,0.370,0.671*74
$GNGFA,171318.00,4.9,8.4,0.384,0.322,60.476,0.671,,SCV*3E
$GPGGA,171319.00,5850.1078078,N,00546.1595017,E,1,32,0.47,584.1568,M,43.9085,M,,*52
$GNGSA,M,3,19,14,03,01,22,08,17,02,32,,,,0.83,0.47,0.68,1*09
$GNGSA,M,3,77,86,87,71,78,79,72,85,,,,,0.83,0.47,0.68,2*06
$GNGSA,M,3,08,03,24,33,26,31,23,07,,,,,0.83,0.47,0.68,3*04
$GNGSA,M,3,20,29,30,35,32,24,41,,,,,,0.83,0.47,0.68,4*00
$GNZDA,171319.00,08,04,2025,00,00*7D
$GNVTG,292.483,T,289.630,M,113.1743,N,209.5987,K,A*37
$GNGST,171319.00,0.835,0.382,0.321,60.815,0.337,0.369,0.669*7A
$GNGFA,171319.00,4.9,8.4,0.382,0.321,60.815,0.669,,SCV*3A
$GPGGA,171320.00,5850.1204725,N,00546.1041649,E,1,31,0.50,584.0565,M,43.9087,M,,*54
$GNGSA,M,3,19,14,03,01,22,17,02,32,,,,,0.89,0.50,0.73,1*07
$GNGSA,M,3,77,86,87,71,78,79,72,85,,,,,0.89,0.50,0.73,2*00
$GNGSA,M,3,08,03,24,33,26,31,23,07,,,,,0.89,0.50,0.73,3*02
$GNGSA,M,3,20,29,30,35,32,24,41,,,,,,0.89,0.50,0.73,4*06
$GNZDA,171320.00,08,04,2025,00,00*77
$GNVTG,295.025,T,292.173,M,112.9518,N,209.1867,K,A*3C
$GNGST,171320.00,0.875,0.385,0.343,61.828,0.352,0.376,0.708*73
$GNGFA,171320.00,5.2,9.4,0.385,0.343,61.828,0.708,,SCV*31
$GPGGA,171321.00,5850.1343889,N,00546.0502386,E,1,30,0.52,583.9439,M,43.9089,M,,*50
$GNGSA,M,3,19,14,03,01,22,17,02,32,,,,,0.90,0.52,0.73,1*0D
$GNGSA,M,3,77,86,87,71,78,79,72,85,,,,,0.90,0.52,0.73,2*0A
$GNGSA,M,3,08,03,24,33,26,31,23,,,,,,0.90,0.52,0.73,3*0F
$GNGSA,M,3,20,29,30,35,32,24,41,,,,,,0.90,0.52,0.73,4*0C
$GNZDA,171321.00,08,04,2025,00,00*76
$GNVTG,297.820,T,294.968,M,112.8108,N,208.9256,K,A*32
$GNGST,171321.00,0.897,0.398,0.354,77.540,0.356,0.396,0.722*72
$GNGFA,171321.00,5.0,9.8,0.398,0.354,77.540,0.722,,SCV*38
$GPGGA,171322.00,5850.1496016,N,00545.9975591,E,1,30,0.50,584.0664,M,43.9091,M,,*5B
$GNGSA,M,3,19,14,03,01,22,08,17,02,32,,,,0.86,0.50,0.70,1*03
$GNGSA,M,3,77,86,87,71,78,79,72,85,,,,,0.86,0.50,0.70,2*0C
$GNGSA,M,3,08,24,33,26,31,23,,,,,,,0.86,0.50,0.70,3*0A
$GNGSA,M,3,20,29,30,35,32,24,41,,,,,,0.86,0.50,0.70,4*0A
$GNZDA,171322.00,08,04,2025,00,00*75
$GNVTG,300.422,T,297.571,M,112.7839,N,208.8757,K,A*35
$GNGST,171322.00,0.902,0.408,0.354,73.733,0.358,0.404,0.723*73
$GNGFA,171322.00,5.1,10.0,0.408,0.354,73.733,0.723,,SCV*07
$GPGGA,171323.00,5850.1658948,N,00545.9458935,E,1,29,0.50,583.5436,M,43.9094,M,,*52
$GNGSA,M,3,19,14,03,01,22,08,17,02,32,,,,0.87,0.50,0.71,1*03
$GNGSA,M,3,77,86,87,71,78,72,85,,,,,,0.87,0.50,0.71,2*02
$GNGSA,M,3,08,03,24,33,26,31,23,,,,,,0.87,0.50,0.71,3*09
$GNGSA,M,3,20,29,30,35,24,41,,,,,,,0.87,0.50,0.71,4*0B
$GNZDA,171323.00,08,04,2025,00,00*74
$GNVTG,302.985,T,300.134,M,112.7970,N,208.9001,K,A*34
$GNGST,171323.00,0.785,0.375,0.303,67.655,0.315,0.365,0.619*79
$GNGFA,171323.00,5.7,10.7,0.375,0.303,67.655,0.619,,SCV*04
$GPGGA,171324.00,5850.1834268,N,00545.8960491,E,1,31,0.47,582.9651,M,43.9097,M,,*5E
$GNGSA,M,3,19,14,03,01,22,08,17,02,32,,,,0.84,0.47,0.69,1*0F
$GNGSA,M,3,77,86,87,71,78,79,72,85,,,,,0.84,0.47,0.69,2*00
$GNGSA,M,3,08,03,24,33,26,31,23,07,,,,,0.84,0.47,0.69,3*02
$GNGSA,M,3,20,29,30,35,24,41,,,,,,,0.84,0.47,0.69,4*07
$GNZDA,171324.00,08,04,2025,00,00*73
$GNVTG,305.367,T,302.516,M,112.5912,N,208.5188,K,A*39
$GNGST,171324.00,0.740,0.353,0.283,62.874,0.299,0.340,0.586*75
$GNGFA,171324.00,5.1,9.8,0.353,0.283,62.874,0.586,,SCV*32
$GPGGA,171325.00,5850.2020382,N,00545.8478937,E,1,32,0.46,581.6624,M,43.9100,M,,*52
$GNGSA,M,3,19,14,03,01,22,08,17,02,32,,,,0.83,0.46,0.69,1*09
$GNGSA,M,3,77,86,87,71,78,79,72,85,,,,,0.83,0.46,0.69,2*06
$GNGSA,M,3,08,03,24,33,26,31,23,07,,,,,0.83,0.46,0.69,3*04
$GNGSA,M,3,20,29,30,35,24,41,16,,,,,,0.83,0.46,0.69,4*06
$GNZDA,171325.00,08,04,2025,00,00*72
$GNVTG,308.026,T,305.176,M,112.2727,N,207.9290,K,A*31
$GNGST,171325.00,0.726,0.345,0.278,61.514,0.295,0.331,0.575*79
$GNGFA,171325.00,4.9,9.6,0.345,0.278,61.514,0.575,,SCV*33
$GPGGA,171326.00,5850.2219237,N,00545.8025069,E,1,35,0.44,579.3549,M,43.9103,M,,*54
$GNGSA,M,3,19,14,03,01,22,08,17,02,32,10,,,0.77,0.44,0.63,1*0B
$GNGSA,M,3,77,86,87,71,78,79,72,85,,,,,0.77,0.44,0.63,2*05
$GNGSA,M,3,08,03,24,33,26,31,23,07,,,,,0.77,0.44,0.63,3*07
$GNGSA,M,3,20,29,30,35,32,24,41,13,16,,,,0.77,0.44,0.63,4*06
$GNZDA,171326.00,08,04,2025,00,00*71
$GNVTG,310.683,T,307.833,M,112.0079,N,207.4386,K,A*3E
$GNGST,171326.00,0.961,0.427,0.384,52.109,0.401,0.411,0.771*76
$GNGFA,171326.00,4.6,8.0,0.427,0.384,52.109,0.771,,SCV*37
$GPGGA,171327.00,5850.2426756,N,00545.7580883,E,1,33,0.48,577.0155,M,43.9106,M,,*5F
$GNGSA,M,3,19,14,03,01,22,17,02,32,10,,,,0.83,0.48,0.68,1*0F
$GNGSA,M,3,77,86,87,71,78,79,72,,,,,,0.83,0.48,0.68,2*04
$GNGSA,M,3,08,03,24,33,26,31,23,07,,,,,0.83,0.48,0.68,3*0B
$GNGSA,M,3,20,29,30,35,32,24,41,13,16,,,,0.83,0.48,0.68,4*0A
$GNZDA,171327.00,08,04,2025,00,00*70
$GNVTG,313.391,T,310.542,M,111.6525,N,206.7805,K,A*3D
$GNGST,171327.00,1.019,0.435,0.410,42.880,0.423,0.421,0.826*7E
$GNGFA,171327.00,4.8,8.8,0.435,0.410,42.880,0.826,,SCV*3D
$GPGGA,171328.00,5850.2644045,N,00545.7157411,E,1,32,0.49,574.5183,M,43.9110,M,,*50
$GNGSA,M,3,19,14,03,01,22,17,02,32,10,,,,0.84,0.49,0.68,1*09
$GNGSA,M,3,77,86,87,71,78,79,72,,,,,,0.84,0.49,0.68,2*02
$GNGSA,M,3,08,03,24,33,26,31,23,07,,,,,0.84,0.49,0.68,3*0D
$GNGSA,M,3,20,29,30,35,32,24,13,16,,,,,0.84,0.49,0.68,4*09
$GNZDA,171328.00,08,04,2025,00,00*7F
$GNVTG,316.156,T,313.307,M,111.2173,N,205.9744,K,A*31
$GNGST,171328.00,1.019,0.438,0.406,46.147,0.422,0.423,0.825*7D
$GNGFA,171328.00,4.8,8.8,0.438,0.406,46.147,0.825,,SCV*3D
$GPGGA,171329.00,5850.2869261,N,00545.6752859,E,1,33,0.48,571.2077,M,43.9114,M,,*5A
$GNGSA,M,3,19,14,03,01,22,17,02,32,10,,,,0.83,0.48,0.68,1*0F
$GNGSA,M,3,77,86,87,71,78,79,72,,,,,,0.83,0.48,0.68,2*04
$GNGSA,M,3,08,03,24,33,26,31,23,07,,,,,0.83,0.48,0.68,3*0B
$GNGSA,M,3,20,29,30,35,32,24,41,13,16,,,,0.83,0.48,0.68,4*0A
$GNZDA,171329.00,08,04,2025,00,00*7E
$GNVTG,319.087,T,316.238,M,110.8616,N,205.3157,K,A*3A
$GNGST,171329.00,0.939,0.401,0.376,37.331,0.392,0.386,0.761*72
$GNGFA,171329.00,4.8,8.8,0.401,0.376,37.331,0.761,,SCV*3C
$GPGGA,171330.00,5850.3106078,N,00545.6376867,E,1,33,0.48,568.6164,M,43.9118,M,,*55
$GNGSA,M,3,19,14,03,01,22,17,02,32,10,,,,0.83,0.48,0.68,1*0F
$GNGSA,M,3,77,86,87,71,78,79,72,,,,,,0.83,0.48,0.68,2*04
$GNGSA,M,3,08,03,24,33,26,31,23,07,,,,,0.83,0.48,0.68,3*0B
$GNGSA,M,3,20,29,30,35,32,24,41,13,16,,,,0.83,0.48,0.68,4*0A
$GNZDA,171330.00,08,04,2025,00,00*76
$GNVTG,322.034,T,319.185,M,110.5732,N,204.7816,K,A*33
$GNGST,171330.00,0.924,0.393,0.370,40.076,0.384,0.380,0.749*77
$GNGFA,171330.00,5.0,8.8,0.393,0.370,40.076,0.749,,SCV*3D
$GPGGA,171331.00,5850.3351530,N,00545.6024929,E,1,32,0.49,566.1567,M,43.9122,M,,*55
$GNGSA,M,3,19,14,03,01,22,17,02,32,10,,,,0.84,0.49,0.68,1*09
$GNGSA,M,3,77,86,87,71,78,79,72,,,,,,0.84,0.49,0.68,2*02
$GNGSA,M,3,08,24,33,26,31,23,07,,,,,,0.84,0.49,0.68,3*0E
$GNGSA,M,3,20,29,30,35,32,24,41,13,16,,,,0.84,0.49,0.68,4*0C
$GNZDA,171331.00,08,04,2025,00,00*77
$GNVTG,324.800,T,321.951,M,110.2116,N,204.1118,K,A*36
$GNGST,171331.00,0.928,0.396,0.371,45.889,0.383,0.384,0.752*7A
$GNGFA,171331.00,5.0,9.1,0.396,0.371,45.889,0.752,,SCV*37
$GPGGA,171332.00,5850.3604632,N,00545.5697393,E,1,33,0.48,563.4921,M,43.9126,M,,*5E
$GNGSA,M,3,19,14,03,01,22,17,02,32,10,,,,0.83,0.48,0.68,1*0F
$GNGSA,M,3,77,86,87,71,78,79,72,,,,,,0.83,0.48,0.68,2*04
$GNGSA,M,3,08,24,33,26,31,23,13,07,,,,,0.83,0.48,0.68,3*0A
$GNGSA,M,3,20,29,30,35,32,24,41,13,16,,,,0.83,0.48,0.68,4*0A
$GNZDA,171332.00,08,04,2025,00,00*74
$GNVTG,327.407,T,324.559,M,109.9590,N,203.6440,K,A*3E
$GNGST,171332.00,0.899,0.386,0.355,38.326,0.374,0.367,0.731*71
$GNGFA,171332.00,5.0,8.8,0.386,0.355,38.326,0.731,,SCV*3A
$GPGGA,171333.00,5850.3864637,N,00545.5392369,E,1,33,0.48,560.5267,M,43.9131,M,,*5A
$GNGSA,M,3,19,14,03,01,22,17,02,32,10,,,,0.83,0.48,0.68,1*0F
$GNGSA,M,3,77,86,87,71,78,72,,,,,,,0.83,0.48,0.68,2*0A
$GNGSA,M,3,08,03,24,33,26,31,23,13,07,,,,0.83,0.48,0.68,3*09
$GNGSA,M,3,20,29,30,35,32,24,41,13,16,,,,0.83,0.48,0.68,4*0A
$GNZDA,171333.00,08,04,2025,00,00*75
$GNVTG,329.849,T,327.001,M,109.7056,N,203.1747,K,A*3F
$GNGST,171333.00,0.882,0.378,0.347,38.265,0.367,0.359,0.717*75
$GNGFA,171333.00,5.0,8.8,0.378,0.347,38.265,0.717,,SCV*3B
$GPGGA,171334.00,5850.4130263,N,00545.5108601,E,1,32,0.49,557.6560,M,43.9135,M,,*5E
$GNGSA,M,3,19,14,03,01,22,17,02,32,10,,,,0.84,0.49,0.68,1*09
$GNGSA,M,3,77,86,87,71,78,79,72,,,,,,0.84,0.49,0.68,2*02
$GNGSA,M,3,08,03,24,33,26,31,23,13,,,,,0.84,0.49,0.68,3*08
$GNGSA,M,3,20,29,30,35,32,24,41,13,,,,,0.84,0.49,0.68,4*0B
$GNZDA,171334.00,08,04,2025,00,00*72
$GNVTG,332.398,T,329.550,M,109.5594,N,202.9039,K,A*33
$GNGST,171334.00,0.895,0.379,0.362,39.335,0.373,0.369,0.725*70
$GNGFA,171334.00,5.0,8.8,0.379,0.362,39.335,0.725,,SCV*3E
$GPGGA,171335.00,5850.4402386,N,00545.4850459,E,1,35,0.46,554.7183,M,43.9140,M,,*5A
$GNGSA,M,3,19,14,03,01,22,17,02,32,10,28,,,0.77,0.46,0.62,1*0A
$GNGSA,M,3,77,86,87,71,78,79,72,70,,,,,0.77,0.46,0.62,2*0C
$GNGSA,M,3,08,03,24,33,26,31,23,13,,,,,0.77,0.46,0.62,3*01
$GNGSA,M,3,20,29,30,35,32,24,41,13,06,,,,0.77,0.46,0.62,4*04
$GNZDA,171335.00,08,04,2025,00,00*73
$GNVTG,335.056,T,332.208,M,109.3817,N,202.5749,K,A*39
$GNGST,171335.00,0.845,0.362,0.340,23.479,0.358,0.344,0.684*7E
$GNGFA,171335.00,5.0,8.6,0.362,0.340,23.479,0.684,,SCV*35
$GPGGA,171336.00,5850.4679612,N,00545.4616526,E,1,35,0.46,551.9660,M,43.9145,M,,*5E
$GNGSA,M,3,19,14,03,01,22,17,02,32,10,28,,,0.77,0.46,0.62,1*0A
$GNGSA,M,3,77,86,87,71,78,79,72,70,,,,,0.77,0.46,0.62,2*0C
$GNGSA,M,3,08,03,24,33,26,31,23,13,,,,,0.77,0.46,0.62,3*01
$GNGSA,M,3,20,29,30,35,32,24,41,13,06,,,,0.77,0.46,0.62,4*04
$GNZDA,171336.00,08,04,2025,00,00*70
$GNVTG,337.721,T,334.873,M,109.1570,N,202.1587,K,A*36
$GNGST,171336.00,0.841,0.360,0.338,21.928,0.357,0.341,0.681*70
$GNGFA,171336.00,5.0,8.6,0.360,0.338,21.928,0.681,,SCV*35
$GPGGA,171337.00,5850.4961789,N,00545.4409336,E,1,36,0.47,549.4083,M,43.9150,M,,*58
$GNGSA,M,3,19,14,03,01,22,17,02,32,10,28,,,0.76,0.47,0.61,1*09
$GNGSA,M,3,77,86,87,71,78,79,72,70,,,,,0.76,0.47,0.61,2*0F
$GNGSA,M,3,08,03,24,33,26,31,23,,,,,,0.76,0.47,0.61,3*00
$GNGSA,M,3,09,20,29,30,35,32,24,41,39,13,06,,0.76,0.47,0.61,4*04
$GNZDA,171337.00,08,04,2025,00,00*71
$GNVTG,340.385,T,337.538,M,109.0085,N,201.8837,K,A*3F
$GNGST,171337.00,0.832,0.365,0.341,13.386,0.363,0.343,0.666*7D
$GNGFA,171337.00,4.9,8.5,0.365,0.341,13.386,0.666,,SCV*32
$GPGGA,171338.00,5850.5248300,N,00545.4226623,E,1,36,0.47,547.1909,M,43.9155,M,,*5C
$GNGSA,M,3,19,14,03,01,22,17,02,32,10,28,,,0.76,0.47,0.61,1*09
$GNGSA,M,3,77,86,87,71,78,79,72,70,,,,,0.76,0.47,0.61,2*0F
$GNGSA,M,3,08,03,24,33,26,31,23,,,,,,0.76,0.47,0.61,3*00
$GNGSA,M,3,09,20,29,30,35,32,24,41,39,13,06,,0.76,0.47,0.61,4*04
$GNZDA,171338.00,08,04,2025,00,00*7E
$GNVTG,342.979,T,340.132,M,108.9271,N,201.7330,K,A*38
$GNGST,171338.00,0.811,0.358,0.330,13.032,0.356,0.332,0.648*7B
$GNGFA,171338.00,4.9,8.3,0.358,0.330,13.032,0.648,,SCV*33
$GPGGA,171339.00,5850.5538779,N,00545.4068213,E,1,36,0.47,544.9350,M,43.9160,M,,*53
$GNGSA,M,3,19,14,03,01,22,17,02,32,10,28,,,0.76,0.47,0.61,1*09
$GNGSA,M,3,77,86,87,71,78,79,72,70,,,,,0.76,0.47,0.61,2*0F
$GNGSA,M,3,08,03,24,33,26,31,23,,,,,,0.76,0.47,0.61,3*00
$GNGSA,M,3,09,20,29,30,35,32,24,41,39,13,06,,0.76,0.47,0.61,4*04
$GNZDA,171339.00,08,04,2025,00,00*7F
$GNVTG,345.342,T,342.495,M,108.9623,N,201.7981,K,A*34
$GNGST,171339.00,0.808,0.363,0.326,12.409,0.361,0.328,0.645*72
$GNGFA,171339.00,4.6,8.0,0.363,0.326,12.409,0.645,,SCV*31
$GPGGA,171340.00,5850.5832757,N,00545.3932174,E,1,37,0.46,542.7521,M,43.9165,M,,*58
$GNGSA,M,3,19,14,03,01,22,17,02,32,10,28,,,0.76,0.46,0.60,1*09
$GNGSA,M,3,77,86,87,71,78,79,72,70,,,,,0.76,0.46,0.60,2*0F
$GNGSA,M,3,08,03,24,33,26,31,23,,,,,,0.76,0.46,0.60,3*00
$GNGSA,M,3,09,20,29,30,35,32,24,16,41,39,13,06,0.76,0.46,0.60,4*03
$GNZDA,171340.00,08,04,2025,00,00*71
$GNVTG,347.564,T,344.717,M,109.2193,N,202.2741,K,A*39
$GNGST,171340.00,0.795,0.359,0.319,10.031,0.358,0.320,0.634*7B
$GNGFA,171340.00,4.7,7.9,0.359,0.319,10.031,0.634,,SCV*36
$GPGGA,171341.00,5850.6126804,N,00545.3814091,E,1,34,0.55,540.0147,M,43.9170,M,,*54
$GNGSA,M,3,19,14,03,01,22,17,02,32,10,28,,,0.87,0.55,0.68,1*0D
$GNGSA,M,3,77,86,87,71,78,79,70,,,,,,0.87,0.55,0.68,2*0E
$GNGSA,M,3,08,03,24,33,26,31,23,,,,,,0.87,0.55,0.68,3*04
$GNGSA,M,3,09,20,29,35,32,24,16,39,13,06,,,0.87,0.55,0.68,4*01
$GNZDA,171341.00,08,04,2025,00,00*70
$GNVTG,349.114,T,346.267,M,109.4411,N,202.6849,K,A*3E
$GNGST,171341.00,0.772,0.357,0.291,179.766,0.357,0.291,0.619*4C
$GNGFA,171341.00,6.8,8.6,0.357,0.291,179.766,0.619,,SCV*01
$GPGGA,171342.00,5850.6425289,N,00545.3710106,E,1,34,0.55,537.7950,M,43.9175,M,,*56
$GNGSA,M,3,19,14,03,01,22,17,02,32,10,28,,,0.87,0.55,0.68,1*0D
$GNGSA,M,3,77,86,87,71,78,79,70,,,,,,0.87,0.55,0.68,2*0E
$GNGSA,M,3,08,03,24,33,26,31,23,,,,,,0.87,0.55,0.68,3*04
$GNGSA,M,3,09,20,29,35,32,24,16,39,13,06,,,0.87,0.55,0.68,4*01
$GNZDA,171342.00,08,04,2025,00,00*73
$GNVTG,350.316,T,347.469,M,109.6367,N,203.0472,K,A*38
$GNGST,171342.00,0.762,0.349,0.288,179.109,0.349,0.288,0.614*4C
$GNGFA,171342.00,6.9,8.7,0.349,0.288,179.109,0.614,,SCV*07
$GPGGA,171343.00,5850.6725369,N,00545.3616131,E,1,34,0.55,535.4273,M,43.9180,M,,*59
$GNGSA,M,3,19,14,03,01,22,17,02,32,10,28,,,0.87,0.55,0.68,1*0D
$GNGSA,M,3,77,86,87,71,78,79,70,,,,,,0.87,0.55,0.68,2*0E
$GNGSA,M,3,08,03,24,33,26,31,23,,,,,,0.87,0.55,0.68,3*04
$GNGSA,M,3,09,20,29,35,32,24,16,39,13,06,,,0.87,0.55,0.68,4*01
$GNZDA,171343.00,08,04,2025,00,00*72
$GNVTG,351.151,T,348.305,M,109.8644,N,203.4689,K,A*32
$GNGST,171343.00,0.760,0.349,0.286,179.066,0.349,0.286,0.612*41
$GNGFA,171343.00,6.9,8.7,0.349,0.286,179.066,0.612,,SCV*06
$GPGGA,171344.00,5850.7026586,N,00545.3529158,E,1,34,0.55,533.0218,M,43.9186,M,,*55
$GNGSA,M,3,19,14,03,01,22,17,02,32,10,28,,,0.87,0.55,0.68,1*0D
$GNGSA,M,3,77,86,87,71,78,79,70,,,,,,0.87,0.55,0.68,2*0E
$GNGSA,M,3,08,03,24,33,26,31,23,,,,,,0.87,0.55,0.68,3*04
$GNGSA,M,3,09,20,29,35,32,24,16,39,13,06,,,0.87,0.55,0.68,4*01
$GNZDA,171344.00,08,04,2025,00,00*75
$GNVTG,351.789,T,348.942,M,110.0068,N,203.7327,K,A*32
$GNGST,171344.00,0.758,0.348,0.286,179.204,0.348,0.286,0.610*49
$GNGFA,171344.00,6.9,8.7,0.348,0.286,179.204,0.610,,SCV*04
$GPGGA,171345.00,5850.7328608,N,00545.3448373,E,1,34,0.55,530.4564,M,43.9191,M,,*5C
$GNGSA,M,3,19,14,03,01,22,17,02,32,10,28,,,0.87,0.55,0.68,1*0D
$GNGSA,M,3,77,86,87,71,78,79,70,,,,,,0.87,0.55,0.68,2*0E
$GNGSA,M,3,08,03,24,33,26,31,23,,,,,,0.87,0.55,0.68,3*04
$GNGSA,M,3,09,20,29,35,32,24,16,39,13,06,,,0.87,0.55,0.68,4*01
$GNZDA,171345.00,08,04,2025,00,00*74
$GNVTG,352.408,T,349.561,M,110.1112,N,203.9260,K,A*36
$GNGST,171345.00,0.753,0.346,0.283,179.087,0.346,0.283,0.606*4D
$GNGFA,171345.00,6.9,8.7,0.346,0.283,179.087,0.606,,SCV*00
$GPGGA,171346.00,5850.7631340,N,00545.3373395,E,1,34,0.55,527.5191,M,43.9196,M,,*52
$GNGSA,M,3,19,14,03,01,22,17,02,32,10,28,,,0.87,0.55,0.68,1*0D
$GNGSA,M,3,77,86,87,71,78,79,70,,,,,,0.87,0.55,0.68,2*0E
$GNGSA,M,3,08,03,24,33,26,31,23,,,,,,0.87,0.55,0.68,3*04
$GNGSA,M,3,09,20,29,35,32,24,16,39,13,06,,,0.87,0.55,0.68,4*01
$GNZDA,171346.00,08,04,2025,00,00*77
$GNVTG,352.942,T,350.095,M,110.2468,N,204.1771,K,A*32
$GNGST,171346.00,0.751,0.345,0.282,179.179,0.345,0.282,0.604*4E
$GNGFA,171346.00,6.9,8.7,0.345,0.282,179.179,0.604,,SCV*03
$GPGGA,171347.00,5850.7934938,N,00545.3303060,E,1,34,0.55,524.7847,M,43.9202,M,,*5F
$GNGSA,M,3,19,14,03,01,22,17,02,32,10,28,,,0.87,0.55,0.68,1*0D
$GNGSA,M,3,77,86,87,71,78,79,70,,,,,,0.87,0.55,0.68,2*0E
$GNGSA,M,3,08,03,24,33,26,31,23,,,,,,0.87,0.55,0.68,3*04
$GNGSA,M,3,09,20,29,35,32,24,16,39,13,06,,,0.87,0.55,0.68,4*01
$GNZDA,171347.00,08,04,2025,00,00*76
$GNVTG,353.353,T,350.507,M,110.4352,N,204.5259,K,A*34
$GNGST,171347.00,0.747,0.344,0.281,179.166,0.344,0.281,0.601*43
$GNGFA,171347.00,6.9,8.6,0.344,0.281,179.166,0.601,,SCV*0A
$GPGGA,171348.00,5850.8238728,N,00545.3238756,E,1,35,0.54,521.9844,M,43.9207,M,,*51
$GNGSA,M,3,19,14,03,01,22,17,02,32,10,28,,,0.87,0.54,0.68,1*0C
$GNGSA,M,3,77,86,87,71,78,79,70,,,,,,0.87,0.54,0.68,2*0F
$GNGSA,M,3,08,03,24,33,26,31,23,,,,,,0.87,0.54,0.68,3*05
$GNGSA,M,3,09,20,29,35,32,24,16,41,39,13,06,,0.87,0.54,0.68,4*05
$GNZDA,171348.00,08,04,2025,00,00*79
$GNVTG,353.800,T,350.954,M,110.4021,N,204.4648,K,A*31
$GNGST,171348.00,0.823,0.387,0.304,177.202,0.387,0.304,0.659*43
$GNGFA,171348.00,7.4,8.7,0.387,0.304,177.202,0.659,,SCV*09
$GPGGA,171349.00,5850.8542948,N,00545.3177112,E,1,35,0.54,519.3196,M,43.9212,M,,*5F
$GNGSA,M,3,19,14,03,01,22,17,02,32,10,28,,,0.87,0.54,0.68,1*0C
$GNGSA,M,3,77,86,87,71,78,79,70,,,,,,0.87,0.54,0.68,2*0F
$GNGSA,M,3,08,03,24,33,26,31,23,,,,,,0.87,0.54,0.68,3*05
$GNGSA,M,3,09,20,29,35,32,24,16,41,39,13,06,,0.87,0.54,0.68,4*05
$GNZDA,171349.00,08,04,2025,00,00*78
$GNVTG,354.324,T,351.477,M,110.4640,N,204.5794,K,A*36
$GNGST,171349.00,0.759,0.357,0.281,177.245,0.357,0.281,0.608*47
$GNGFA,171349.00,7.4,8.7,0.357,0.281,177.245,0.608,,SCV*0E
$GPGGA,171350.00,5850.8847750,N,00545.3121572,E,1,35,0.54,516.7350,M,43.9217,M,,*5F
$GNGSA,M,3,19,14,03,01,22,17,02,32,10,28,,,0.87,0.54,0.68,1*0C
$GNGSA,M,3,77,86,87,71,78,79,70,,,,,,0.87,0.54,0.68,2*0F
$GNGSA,M,3,08,03,24,33,26,31,23,,,,,,0.87,0.54,0.68,3*05
$GNGSA,M,3,09,20,29,35,32,24,16,41,39,13,06,,0.87,0.54,0.68,4*05
$GNZDA,171350.00,08,04,2025,00,00*70
$GNVTG,354.854,T,352.008,M,110.4844,N,204.6171,K,A*31
$GNGST,171350.00,0.754,0.355,0.279,177.006,0.355,0.279,0.604*4B
$GNGFA,171350.00,7.4,8.7,0.355,0.279,177.006,0.604,,SCV*0A
$GPGGA,171351.00,5850.9152307,N,00545.3071360,E,1,35,0.54,514.4341,M,43.9223,M,,*53
$GNGSA,M,3,19,14,03,01,22,17,02,32,10,28,,,0.87,0.54,0.68,1*0C
$GNGSA,M,3,77,86,87,71,78,79,70,,,,,,0.87,0.54,0.68,2*0F
$GNGSA,M,3,08,03,24,33,26,31,23,,,,,,0.87,0.54,0.68,3*05
$GNGSA,M,3,09,20,29,35,32,24,16,41,39,13,06,,0.87,0.54,0.68,4*05
$GNZDA,171351.00,08,04,2025,00,00*71
$GNVTG,355.374,T,352.528,M,110.1082,N,203.9205,K,A*31
$GNGST,171351.00,0.750,0.354,0.276,176.905,0.353,0.276,0.602*44
$GNGFA,171351.00,7.3,8.7,0.354,0.276,176.905,0.602,,SCV*0F
$GPGGA,171352.00,5850.9455892,N,00545.3026801,E,1,36,0.52,512.4566,M,43.9228,M,,*50
$GNGSA,M,3,19,14,03,01,22,17,02,32,10,28,,,0.85,0.52,0.68,1*08
$GNGSA,M,3,77,86,87,71,78,79,70,,,,,,0.85,0.52,0.68,2*0B
$GNGSA,M,3,08,03,24,33,26,31,23,07,,,,,0.85,0.52,0.68,3*06
$GNGSA,M,3,09,20,29,35,32,24,16,41,39,13,06,,0.85,0.52,0.68,4*01
$GNZDA,171352.00,08,04,2025,00,00*72
$GNVTG,356.000,T,353.154,M,109.3966,N,202.6025,K,A*3B
$GNGST,171352.00,0.738,0.347,0.269,179.861,0.347,0.269,0.593*49
$GNGFA,171352.00,7.3,8.6,0.347,0.269,179.861,0.593,,SCV*06
$GPGGA,171353.00,5850.9758077,N,00545.2988891,E,1,35,0.58,510.9432,M,43.9233,M,,*55
$GNGSA,M,3,19,14,03,01,22,17,02,32,10,28,,,0.95,0.58,0.76,1*0C
$GNGSA,M,3,77,86,87,71,78,79,70,,,,,,0.95,0.58,0.76,2*0F
$GNGSA,M,3,08,03,24,33,26,31,07,,,,,,0.95,0.58,0.76,3*03
$GNGSA,M,3,09,20,29,35,32,24,16,41,39,13,06,,0.95,0.58,0.76,4*05
$GNZDA,171353.00,08,04,2025,00,00*73
$GNVTG,356.508,T,353.662,M,108.5129,N,200.9660,K,A*3A
$GNGST,171353.00,0.779,0.373,0.268,1.553,0.373,0.268,0.629*4D
$GNGFA,171353.00,8.7,9.4,0.373,0.268,1.553,0.629,,SCV*09
$GPGGA,171354.00,5851.0056697,N,00545.2955909,E,1,35,0.58,508.9081,M,43.9238,M,,*55
$GNGSA,M,3,19,14,03,01,22,17,02,32,10,28,,,0.95,0.58,0.76,1*0C
$GNGSA,M,3,77,86,87,71,78,79,70,,,,,,0.95,0.58,0.76,2*0F
$GNGSA,M,3,08,03,24,33,26,31,07,,,,,,0.95,0.58,0.76,3*03
$GNGSA,M,3,09,20,29,35,32,24,16,41,39,13,06,,0.95,0.58,0.76,4*05
$GNZDA,171354.00,08,04,2025,00,00*74
$GNVTG,356.928,T,354.082,M,107.4419,N,198.9823,K,A*38
$GNGST,171354.00,0.777,0.372,0.267,1.549,0.372,0.267,0.628*4E
$GNGFA,171354.00,8.7,9.4,0.372,0.267,1.549,0.628,,SCV*0A
$GPGGA,171355.00,5851.0352620,N,00545.2927058,E,1,35,0.58,506.5958,M,43.9244,M,,*53
$GNGSA,M,3,19,14,03,01,22,17,02,32,10,28,,,0.95,0.58,0.76,1*0C
$GNGSA,M,3,77,86,87,71,78,79,70,,,,,,0.95,0.58,0.76,2*0F
$GNGSA,M,3,08,03,24,33,26,31,07,,,,,,0.95,0.58,0.76,3*03
$GNGSA,M,3,09,20,29,35,32,24,16,41,39,13,06,,0.95,0.58,0.76,4*05
$GNZDA,171355.00,08,04,2025,00,00*75
$GNVTG,357.289,T,354.443,M,106.4235,N,197.0964,K,A*3D
$GNGST,171355.00,0.777,0.372,0.267,1.546,0.372,0.267,0.628*40
$GNGFA,171355.00,8.7,9.4,0.372,0.267,1.546,0.628,,SCV*04
$GPGGA,171356.00,5851.0645625,N,00545.2901395,E,1,35,0.58,504.3081,M,43.9249,M,,*54
$GNGSA,M,3,19,14,03,01,22,17,02,32,10,28,,,0.95,0.58,0.76,1*0C
$GNGSA,M,3,77,86,87,71,78,79,70,,,,,,0.95,0.58,0.76,2*0F
$GNGSA,M,3,08,03,24,33,26,31,07,,,,,,0.95,0.58,0.76,3*03
$GNGSA,M,3,09,20,29,35,32,24,16,41,39,13,06,,0.95,0.58,0.76,4*05
$GNZDA,171356.00,08,04,2025,00,00*76
$GNVTG,357.526,T,354.679,M,105.2436,N,194.9111,K,A*34
$GNGST,171356.00,0.776,0.372,0.266,1.542,0.372,0.266,0.627*49
$GNGFA,171356.00,8.7,9.4,0.372,0.266,1.542,0.627,,SCV*0D
$GPGGA,171357.00,5851.0935325,N,00545.2878407,E,1,35,0.58,501.9536,M,43.9254,M,,*51
$GNGSA,M,3,19,14,03,01,22,17,02,32,10,28,,,0.95,0.58,0.76,1*0C
$GNGSA,M,3,77,86,87,71,78,79,70,,,,,,0.95,0.58,0.76,2*0F
$GNGSA,M,3,08,03,24,33,26,31,07,,,,,,0.95,0.58,0.76,3*03
$GNGSA,M,3,09,20,29,35,32,24,16,41,39,13,06,,0.95,0.58,0.76,4*05
$GNZDA,171357.00,08,04,2025,00,00*77
$GNVTG,357.747,T,354.901,M,104.0274,N,192.6587,K,A*30
$GNGST,171357.00,0.776,0.372,0.266,1.557,0.372,0.266,0.627*4C
$GNGFA,171357.00,8.7,9.4,0.372,0.266,1.557,0.627,,SCV*08
$GPGGA,171358.00,5851.1221717,N,00545.2857776,E,1,35,0.58,499.2940,M,43.9259,M,,*57
$GNGSA,M,3,19,14,03,01,22,17,02,32,10,28,,,0.95,0.58,0.76,1*0C
$GNGSA,M,3,77,86,87,71,78,79,70,,,,,,0.95,0.58,0.76,2*0F
$GNGSA,M,3,08,03,24,33,26,31,07,,,,,,0.95,0.58,0.76,3*03
$GNGSA,M,3,09,20,29,35,32,24,16,41,39,13,06,,0.95,0.58,0.76,4*05
$GNZDA,171358.00,08,04,2025,00,00*78
$GNVTG,358.015,T,355.169,M,102.7883,N,190.3639,K,A*3A
$GNGST,171358.00,0.777,0.373,0.266,1.554,0.373,0.266,0.628*4E
$GNGFA,171358.00,8.7,9.3,0.373,0.266,1.554,0.628,,SCV*0D
$GPGGA,171359.00,5851.1504822,N,00545.2840069,E,1,35,0.58,496.3772,M,43.9263,M,,*58
$GNGSA,M,3,19,14,03,01,22,17,02,32,10,28,,,0.95,0.58,0.76,1*0C
$GNGSA,M,3,77,86,87,71,78,79,70,,,,,,0.95,0.58,0.76,2*0F
$GNGSA,M,3,08,03,24,33,26,31,07,,,,,,0.95,0.58,0.76,3*03
$GNGSA,M,3,09,20,29,35,32,24,16,41,39,13,06,,0.95,0.58,0.76,4*05
$GNZDA,171359.00,08,04,2025,00,00*79
$GNVTG,358.236,T,355.390,M,101.6078,N,188.1777,K,A*33
$GNGST,171359.00,0.778,0.373,0.266,1.540,0.373,0.266,0.628*45
$GNGFA,171359.00,8.6,9.3,0.373,0.266,1.540,0.628,,SCV*08
$GPGGA,171400.00,5851.1784424,N,00545.2824735,E,1,34,0.62,493.3917,M,43.9268,M,,*54
$GNGSA,M,3,19,14,03,01,22,17,02,32,10,28,,,0.99,0.62,0.77,1*08
$GNGSA,M,3,77,86,87,71,78,79,70,,,,,,0.99,0.62,0.77,2*0B
$GNGSA,M,3,08,03,24,33,26,31,,,,,,,0.99,0.62,0.77,3*00
$GNGSA,M,3,09,20,29,35,32,24,16,41,39,13,06,,0.99,0.62,0.77,4*01
$GNZDA,171400.00,08,04,2025,00,00*72
$GNVTG,358.423,T,355.577,M,100.4025,N,185.9454,K,A*32
$GNGST,171400.00,0.798,0.385,0.272,179.222,0.385,0.272,0.643*40
$GNGFA,171400.00,9.0,9.6,0.385,0.272,179.222,0.643,,SCV*0D
$GPGGA,171401.00,5851.2060707,N,00545.2810773,E,1,34,0.62,490.4481,M,43.9273,M,,*50
$GNGSA,M,3,19,14,03,01,22,17,02,32,10,28,,,0.99,0.62,0.77,1*08
$GNGSA,M,3,77,86,87,71,78,79,70,,,,,,0.99,0.62,0.77,2*0B
$GNGSA,M,3,08,03,24,33,26,31,,,,,,,0.99,0.62,0.77,3*00
$GNGSA,M,3,09,20,29,35,32,24,16,41,39,13,06,,0.99,0.62,0.77,4*01
$GNZDA,171401.00,08,04,2025,00,00*73
$GNVTG,358.528,T,355.682,M,99.0776,N,183.4918,K,A*0B
$GNGST,171401.00,0.797,0.385,0.271,179.223,0.385,0.271,0.643*4F
$GNGFA,171401.00,9.0,9.6,0.385,0.271,179.223,0.643,,SCV*0E
$GPGGA,171402.00,5851.2332132,N,00545.2797483,E,1,35,0.54,487.1822,M,43.9278,M,,*52
$GNGSA,M,3,19,14,03,01,22,17,02,32,10,28,,,0.87,0.54,0.68,1*0C
$GNGSA,M,3,77,86,87,71,78,79,70,,,,,,0.87,0.54,0.68,2*0F
$GNGSA,M,3,08,03,24,33,26,31,23,,,,,,0.87,0.54,0.68,3*05
$GNGSA,M,3,09,20,29,35,32,24,16,41,39,13,06,,0.87,0.54,0.68,4*05
$GNZDA,171402.00,08,04,2025,00,00*70
$GNVTG,358.559,T,355.713,M,97.7476,N,181.0285,K,A*07
$GNGST,171402.00,0.752,0.357,0.272,177.281,0.357,0.272,0.603*47
$GNGFA,171402.00,7.4,8.6,0.357,0.272,177.281,0.603,,SCV*08
$GPGGA,171403.00,5851.2601097,N,00545.2784184,E,1,36,0.52,484.2161,M,43.9282,M,,*56
$GNGSA,M,3,19,14,03,01,22,17,02,32,10,28,,,0.85,0.52,0.68,1*08
$GNGSA,M,3,77,86,87,71,78,79,70,,,,,,0.85,0.52,0.68,2*0B
$GNGSA,M,3,08,03,24,33,26,31,23,,,,,,0.85,0.52,0.68,3*01
$GNGSA,M,3,09,20,29,30,35,32,24,16,41,39,13,06,0.85,0.52,0.68,4*02
$GNZDA,171403.00,08,04,2025,00,00*71
$GNVTG,358.570,T,355.724,M,96.3237,N,178.3915,K,A*09
$GNGST,171403.00,0.738,0.349,0.268,178.493,0.349,0.268,0.593*4A
$GNGFA,171403.00,7.0,8.7,0.349,0.268,178.493,0.593,,SCV*08
$GPGGA,171404.00,5851.2866079,N,00545.2771472,E,1,36,0.52,481.2924,M,43.9287,M,,*51
$GNGSA,M,3,19,14,03,01,22,17,02,32,10,28,,,0.85,0.52,0.68,1*08
$GNGSA,M,3,77,86,87,71,78,79,70,,,,,,0.85,0.52,0.68,2*0B
$GNGSA,M,3,08,03,24,33,26,31,23,,,,,,0.85,0.52,0.68,3*01
$GNGSA,M,3,09,20,29,30,35,32,24,16,41,39,13,06,0.85,0.52,0.68,4*02
$GNZDA,171404.00,08,04,2025,00,00*76
$GNVTG,358.538,T,355.692,M,94.9534,N,175.8536,K,A*0E
$GNGST,171404.00,0.738,0.349,0.268,178.478,0.349,0.268,0.593*48
$GNGFA,171404.00,7.0,8.7,0.349,0.268,178.478,0.593,,SCV*0A
$GPGGA,171405.00,5851.3127144,N,00545.2758210,E,1,36,0.52,478.4328,M,43.9291,M,,*5A
$GNGSA,M,3,19,14,03,01,22,17,02,32,10,28,,,0.85,0.52,0.68,1*08
$GNGSA,M,3,77,86,87,71,78,79,70,,,,,,0.85,0.52,0.68,2*0B
$GNGSA,M,3,08,03,24,33,26,31,23,,,,,,0.85,0.52,0.68,3*01
$GNGSA,M,3,09,20,29,30,35,32,24,16,41,39,13,06,0.85,0.52,0.68,4*02
$GNZDA,171405.00,08,04,2025,00,00*77
$GNVTG,358.428,T,355.582,M,93.5976,N,173.3428,K,A*0E
$GNGST,171405.00,0.732,0.346,0.267,178.160,0.346,0.268,0.587*45
$GNGFA,171405.00,6.8,8.5,0.346,0.267,178.160,0.587,,SCV*09
$GPGGA,171406.00,5851.3384423,N,00545.2744993,E,1,37,0.51,475.6733,M,43.9296,M,,*5F
$GNGSA,M,3,19,14,03,01,22,17,02,32,10,28,,,0.84,0.51,0.67,1*05
$GNGSA,M,3,77,86,87,71,78,79,70,,,,,,0.84,0.51,0.67,2*06
$GNGSA,M,3,08,03,24,33,26,31,23,13,,,,,0.84,0.51,0.67,3*0E
$GNGSA,M,3,09,20,29,30,35,32,24,16,41,39,13,06,0.84,0.51,0.67,4*0F
$GNZDA,171406.00,08,04,2025,00,00*74
$GNVTG,358.378,T,355.532,M,92.2593,N,170.8643,K,A*01
$GNGST,171406.00,0.723,0.343,0.261,0.276,0.343,0.261,0.581*45
$GNGFA,171406.00,6.8,8.3,0.343,0.261,0.276,0.581,,SCV*03
$GPGGA,171407.00,5851.3637867,N,00545.2731321,E,1,37,0.51,473.0693,M,43.9300,M,,*5B
$GNGSA,M,3,19,14,03,01,22,17,02,32,10,28,,,0.84,0.51,0.67,1*05
$GNGSA,M,3,77,86,87,71,78,79,70,,,,,,0.84,0.51,0.67,2*06
$GNGSA,M,3,08,03,24,33,26,31,23,13,,,,,0.84,0.51,0.67,3*0E
$GNGSA,M,3,09,20,29,30,35,32,24,16,41,39,13,06,0.84,0.51,0.67,4*0F
$GNZDA,171407.00,08,04,2025,00,00*75
$GNVTG,358.427,T,355.580,M,90.8583,N,168.2695,K,A*04
$GNGST,171407.00,0.710,0.337,0.256,0.271,0.337,0.256,0.571*4C
$GNGFA,171407.00,6.8,8.3,0.337,0.256,0.271,0.571,,SCV*0D
$GPGGA,171408.00,5851.3887920,N,00545.2717182,E,1,36,0.52,470.6541,M,43.9304,M,,*53
$GNGSA,M,3,19,14,03,01,22,17,02,32,10,28,,,0.85,0.52,0.68,1*08
$GNGSA,M,3,77,86,87,71,78,79,70,,,,,,0.85,0.52,0.68,2*0B
$GNGSA,M,3,08,03,24,33,26,31,23,,,,,,0.85,0.52,0.68,3*01
$GNGSA,M,3,09,20,29,30,35,32,24,16,41,39,13,06,0.85,0.52,0.68,4*02
$GNZDA,171408.00,08,04,2025,00,00*7A
$GNVTG,358.331,T,355.485,M,89.5930,N,165.9263,K,A*0A
$GNGST,171408.00,0.720,0.340,0.262,178.209,0.340,0.263,0.577*46
$GNGFA,171408.00,6.8,8.5,0.340,0.262,178.209,0.577,,SCV*04
$GPGGA,171409.00,5851.4134357,N,00545.2702946,E,1,36,0.52,468.1210,M,43.9308,M,,*5B
$GNGSA,M,3,19,14,03,01,22,17,02,32,10,28,,,0.85,0.52,0.68,1*08
$GNGSA,M,3,77,86,87,71,78,79,70,,,,,,0.85,0.52,0.68,2*0B
$GNGSA,M,3,08,03,24,33,26,31,23,,,,,,0.85,0.52,0.68,3*01
$GNGSA,M,3,09,20,29,30,35,32,24,16,41,39,13,06,0.85,0.52,0.68,4*02
$GNZDA,171409.00,08,04,2025,00,00*7B
$GNVTG,358.280,T,355.434,M,88.3975,N,163.7122,K,A*03
$GNGST,171409.00,0.720,0.341,0.262,178.208,0.341,0.263,0.578*49
$GNGFA,171409.00,6.8,8.5,0.341,0.262,178.208,0.578,,SCV*0A
$GPGGA,171410.00,5851.4377619,N,00545.2688333,E,1,36,0.52,465.5451,M,43.9313,M,,*52
$GNGSA,M,3,19,14,03,01,22,17,02,32,10,28,,,0.85,0.52,0.68,1*08
$GNGSA,M,3,77,86,87,71,78,79,70,,,,,,0.85,0.52,0.68,2*0B
$GNGSA,M,3,08,03,24,33,26,31,23,,,,,,0.85,0.52,0.68,3*01
$GNGSA,M,3,09,20,29,30,35,32,24,16,41,39,13,06,0.85,0.52,0.68,4*02
$GNZDA,171410.00,08,04,2025,00,00*73
$GNVTG,358.194,T,355.348,M,87.2118,N,161.5162,K,A*00
$GNGST,171410.00,0.724,0.347,0.262,178.953,0.347,0.262,0.579*40
$GNGFA,171410.00,6.4,8.4,0.347,0.262,178.953,0.579,,SCV*0D
$GPGGA,171411.00,5851.4617683,N,00545.2673878,E,1,36,0.52,463.1682,M,43.9317,M,,*59
$GNGSA,M,3,19,14,03,01,22,17,02,32,10,28,,,0.85,0.52,0.68,1*08
$GNGSA,M,3,77,86,87,71,78,79,70,,,,,,0.85,0.52,0.68,2*0B
$GNGSA,M,3,08,03,24,33,26,31,23,,,,,,0.85,0.52,0.68,3*01
$GNGSA,M,3,09,20,29,30,35,32,24,16,41,39,13,06,0.85,0.52,0.68,4*02
$GNZDA,171411.00,08,04,2025,00,00*72
$GNVTG,358.217,T,355.371,M,86.1346,N,159.5212,K,A*06
$GNGST,171411.00,0.724,0.347,0.262,178.950,0.347,0.262,0.579*42
$GNGFA,171411.00,6.4,8.4,0.347,0.262,178.950,0.579,,SCV*0F
$GPGGA,171412.00,5851.4854715,N,00545.2659784,E,1,36,0.52,460.9752,M,43.9321,M,,*5B
$GNGSA,M,3,19,14,03,01,22,17,02,32,10,28,,,0.85,0.52,0.68,1*08
$GNGSA,M,3,77,86,87,71,78,79,70,,,,,,0.85,0.52,0.68,2*0B
$GNGSA,M,3,08,03,24,33,26,31,23,,,,,,0.85,0.52,0.68,3*01
$GNGSA,M,3,09,20,29,30,35,32,24,16,41,39,13,06,0.85,0.52,0.68,4*02
$GNZDA,171412.00,08,04,2025,00,00*71
$GNVTG,358.188,T,355.342,M,85.0417,N,157.4973,K,A*01
$GNGST,171412.00,0.724,0.347,0.262,178.947,0.347,0.262,0.579*47
$GNGFA,171412.00,6.4,8.3,0.347,0.262,178.947,0.579,,SCV*0D
$GPGGA,171413.00,5851.5088788,N,00545.2645499,E,1,36,0.52,458.7527,M,43.9325,M,,*55
$GNGSA,M,3,19,14,03,01,22,17,02,32,10,28,,,0.85,0.52,0.68,1*08
$GNGSA,M,3,77,86,87,71,78,79,70,,,,,,0.85,0.52,0.68,2*0B
$GNGSA,M,3,08,03,24,33,26,31,23,,,,,,0.85,0.52,0.68,3*01
$GNGSA,M,3,09,20,29,30,35,32,24,16,41,39,13,06,0.85,0.52,0.68,4*02
$GNZDA,171413.00,08,04,2025,00,00*70
$GNVTG,358.159,T,355.313,M,84.0006,N,155.5690,K,A*0D
$GNGST,171413.00,0.725,0.348,0.262,178.943,0.348,0.262,0.580*45
$GNGFA,171413.00,6.4,8.3,0.348,0.262,178.943,0.580,,SCV*01
$GPGGA,171414.00,5851.5320194,N,00545.2631510,E,1,36,0.52,456.6286,M,43.9329,M,,*54
$GNGSA,M,3,19,14,03,01,22,17,02,32,10,28,,,0.85,0.52,0.68,1*08
$GNGSA,M,3,77,86,87,71,78,79,70,,,,,,0.85,0.52,0.68,2*0B
$GNGSA,M,3,08,03,24,33,26,31,23,,,,,,0.85,0.52,0.68,3*01
$GNGSA,M,3,09,20,29,30,35,32,24,16,41,39,13,06,0.85,0.52,0.68,4*02
$GNZDA,171414.00,08,04,2025,00,00*77
$GNVTG,358.227,T,355.381,M,83.0712,N,153.8479,K,A*07
$GNGST,171414.00,0.726,0.348,0.262,178.870,0.348,0.262,0.581*41
$GNGFA,171414.00,6.4,8.3,0.348,0.262,178.870,0.581,,SCV*06
$GPGGA,171415.00,5851.5548984,N,00545.2617517,E,1,36,0.52,454.6021,M,43.9332,M,,*50
$GNGSA,M,3,19,14,03,01,22,17,02,32,10,28,,,0.85,0.52,0.68,1*08
$GNGSA,M,3,77,86,87,71,78,79,70,,,,,,0.85,0.52,0.68,2*0B
$GNGSA,M,3,08,03,24,33,26,31,23,,,,,,0.85,0.52,0.68,3*01
$GNGSA,M,3,09,20,29,30,35,32,24,16,41,39,13,06,0.85,0.52,0.68,4*02
$GNZDA,171415.00,08,04,2025,00,00*76
$GNVTG,358.107,T,355.261,M,82.1671,N,152.1735,K,A*0E
$GNGST,171415.00,0.725,0.348,0.261,178.865,0.348,0.261,0.580*46
$GNGFA,171415.00,6.4,8.3,0.348,0.261,178.865,0.580,,SCV*01
$GPGGA,171416.00,5851.5775172,N,00545.2602718,E,1,36,0.52,452.6130,M,43.9336,M,,*54
$GNGSA,M,3,19,14,03,01,22,17,02,32,10,28,,,0.85,0.52,0.68,1*08
$GNGSA,M,3,77,86,87,71,78,79,70,,,,,,0.85,0.52,0.68,2*0B
$GNGSA,M,3,08,03,24,33,26,31,23,,,,,,0.85,0.52,0.68,3*01
$GNGSA,M,3,09,20,29,30,35,32,24,16,41,39,13,06,0.85,0.52,0.68,4*02
$GNZDA,171416.00,08,04,2025,00,00*75
$GNVTG,358.028,T,355.182,M,81.2186,N,150.4168,K,A*0A
$GNGST,171416.00,0.726,0.349,0.261,178.861,0.349,0.261,0.581*43
$GNGFA,171416.00,6.4,8.3,0.349,0.261,178.861,0.581,,SCV*06
$GPGGA,171417.00,5851.5998831,N,00545.2587842,E,1,36,0.52,450.7558,M,43.9340,M,,*50
$GNGSA,M,3,19,14,03,01,22,17,02,32,10,28,,,0.85,0.52,0.68,1*08
$GNGSA,M,3,77,86,87,71,78,79,70,,,,,,0.85,0.52,0.68,2*0B
$GNGSA,M,3,08,03,24,33,26,31,23,,,,,,0.85,0.52,0.68,3*01
$GNGSA,M,3,09,20,29,30,35,32,24,16,41,39,13,06,0.85,0.52,0.68,4*02
$GNZDA,171417.00,08,04,2025,00,00*74
$GNVTG,357.985,T,355.139,M,80.3106,N,148.7352,K,A*02
$GNGST,171417.00,0.726,0.349,0.261,178.901,0.349,0.261,0.581*45
$GNGFA,171417.00,6.4,8.3,0.349,0.261,178.901,0.581,,SCV*00
$GPGGA,171418.00,5851.6219812,N,00545.2573016,E,1,36,0.52,448.9573,M,43.9344,M,,*57
$GNGSA,M,3,19,14,03,01,22,17,02,32,10,28,,,0.85,0.52,0.68,1*08
$GNGSA,M,3,77,86,87,71,78,79,70,,,,,,0.85,0.52,0.68,2*0B
$GNGSA,M,3,08,03,24,33,26,31,23,,,,,,0.85,0.52,0.68,3*01
$GNGSA,M,3,09,20,29,30,35,32,24,16,41,39,13,06,0.85,0.52,0.68,4*02
$GNZDA,171418.00,08,04,2025,00,00*7B
$GNVTG,358.033,T,355.187,M,79.3752,N,147.0029,K,A*0A
$GNGST,171418.00,0.725,0.349,0.260,178.897,0.349,0.260,0.580*46
$GNGFA,171418.00,6.4,8.3,0.349,0.260,178.897,0.580,,SCV*01
$GPGGA,171419.00,5851.6438171,N,00545.2558263,E,1,36,0.52,447.1299,M,43.9347,M,,*51
$GNGSA,M,3,19,14,03,01,22,17,02,32,10,28,,,0.85,0.52,0.68,1*08
$GNGSA,M,3,77,86,87,71,78,79,70,,,,,,0.85,0.52,0.68,2*0B
$GNGSA,M,3,08,03,24,33,26,31,23,,,,,,0.85,0.52,0.68,3*01
$GNGSA,M,3,09,20,29,30,35,32,24,16,41,39,13,06,0.85,0.52,0.68,4*02
$GNZDA,171419.00,08,04,2025,00,00*7A
$GNVTG,357.963,T,355.117,M,78.3612,N,145.1250,K,A*0B
$GNGST,171419.00,0.725,0.349,0.260,178.893,0.349,0.260,0.580*43
$GNGFA,171419.00,6.4,8.3,0.349,0.260,178.893,0.580,,SCV*04
$GPGGA,171420.00,5851.6653755,N,00545.2543482,E,1,36,0.52,445.4785,M,43.9351,M,,*5F
$GNGSA,M,3,19,14,03,01,22,17,02,32,10,28,,,0.85,0.52,0.68,1*08
$GNGSA,M,3,77,86,87,71,78,79,70,,,,,,0.85,0.52,0.68,2*0B
$GNGSA,M,3,08,03,24,33,26,31,23,,,,,,0.85,0.52,0.68,3*01
$GNGSA,M,3,09,20,29,30,35,32,24,16,41,39,13,06,0.85,0.52,0.68,4*02
$GNZDA,171420.00,08,04,2025,00,00*70
$GNVTG,357.957,T,355.111,M,77.3897,N,143.3258,K,A*0A
$GNGST,171420.00,0.726,0.350,0.260,178.888,0.350,0.260,0.581*41
$GNGFA,171420.00,6.4,8.3,0.350,0.260,178.888,0.581,,SCV*0D
$GPGGA,171421.00,5851.6866469,N,00545.2528100,E,1,36,0.52,444.0441,M,43.9355,M,,*52
$GNGSA,M,3,19,14,03,01,22,17,02,32,10,28,,,0.85,0.52,0.67,1*07
$GNGSA,M,3,77,86,87,71,78,79,70,,,,,,0.85,0.52,0.67,2*04
$GNGSA,M,3,08,03,24,33,26,31,23,,,,,,0.85,0.52,0.67,3*0E
$GNGSA,M,3,09,20,29,30,35,32,24,16,41,39,13,06,0.85,0.52,0.67,4*0D
$GNZDA,171421.00,08,04,2025,00,00*71
$GNVTG,357.833,T,354.987,M,76.2837,N,141.2774,K,A*0D
$GNGST,171421.00,0.727,0.350,0.260,178.882,0.350,0.260,0.582*48
$GNGFA,171421.00,6.4,8.3,0.350,0.260,178.882,0.582,,SCV*05
$GPGGA,171422.00,5851.7076206,N,00545.2512537,E,1,36,0.52,442.9520,M,43.9358,M,,*5B
$GNGSA,M,3,19,14,03,01,22,17,02,32,10,28,,,0.85,0.52,0.67,1*07
$GNGSA,M,3,77,86,87,71,78,79,70,,,,,,0.85,0.52,0.67,2*04
$GNGSA,M,3,08,03,24,33,26,31,23,,,,,,0.85,0.52,0.67,3*0E
$GNGSA,M,3,09,20,29,30,35,32,24,16,41,39,13,06,0.85,0.52,0.67,4*0D
$GNZDA,171422.00,08,04,2025,00,00*72
$GNVTG,357.749,T,354.903,M,75.2294,N,139.3248,K,A*07
$GNGST,171422.00,0.727,0.350,0.260,178.877,0.350,0.260,0.582*41
$GNGFA,171422.00,6.3,8.3,0.350,0.260,178.877,0.582,,SCV*0B
$GPGGA,171423.00,5851.7282939,N,00545.2496641,E,1,36,0.52,442.0646,M,43.9362,M,,*58
$GNGSA,M,3,19,14,03,01,22,17,02,32,10,28,,,0.85,0.52,0.67,1*07
$GNGSA,M,3,77,86,87,71,78,79,70,,,,,,0.85,0.52,0.67,2*04
$GNGSA,M,3,08,03,24,33,26,31,23,,,,,,0.85,0.52,0.67,3*0E
$GNGSA,M,3,09,20,29,30,35,32,24,16,41,39,13,06,0.85,0.52,0.67,4*0D
$GNZDA,171423.00,08,04,2025,00,00*73
$GNVTG,357.685,T,354.839,M,74.1168,N,137.2644,K,A*0B
$GNGST,171423.00,0.728,0.351,0.260,178.872,0.351,0.260,0.582*4A
$GNGFA,171423.00,6.3,8.3,0.351,0.260,178.872,0.582,,SCV*0E
$GPGGA,171424.00,5851.7486847,N,00545.2480577,E,1,36,0.52,441.3517,M,43.9365,M,,*54
$GNGSA,M,3,19,14,03,01,22,17,02,32,10,28,,,0.85,0.52,0.67,1*07
$GNGSA,M,3,77,86,87,71,78,79,70,,,,,,0.85,0.52,0.67,2*04
$GNGSA,M,3,08,03,24,33,26,31,23,,,,,,0.85,0.52,0.67,3*0E
$GNGSA,M,3,09,20,29,30,35,32,24,16,41,39,13,06,0.85,0.52,0.67,4*0D
$GNZDA,171424.00,08,04,2025,00,00*74
$GNVTG,357.642,T,354.796,M,73.1099,N,135.3996,K,A*01
$GNGST,171424.00,0.734,0.360,0.259,179.728,0.360,0.259,0.584*47
$GNGFA,171424.00,6.2,8.1,0.360,0.259,179.728,0.584,,SCV*05
$GPGGA,171425.00,5851.7687634,N,00545.2463977,E,1,36,0.52,440.7851,M,43.9369,M,,*5B
$GNGSA,M,3,19,14,03,01,22,17,02,32,10,28,,,0.85,0.52,0.67,1*07
$GNGSA,M,3,77,86,87,71,78,79,70,,,,,,0.85,0.52,0.67,2*04
$GNGSA,M,3,08,03,24,33,26,31,23,,,,,,0.85,0.52,0.67,3*0E
$GNGSA,M,3,09,20,29,30,35,32,24,16,41,39,13,06,0.85,0.52,0.67,4*0D
$GNZDA,171425.00,08,04,2025,00,00*75
$GNVTG,357.503,T,354.657,M,72.0785,N,133.4895,K,A*02
$GNGST,171425.00,0.740,0.362,0.260,0.725,0.362,0.260,0.592*40
$GNGFA,171425.00,6.5,8.3,0.362,0.260,0.725,0.592,,SCV*0C
$GPGGA,171426.00,5851.7882507,N,00545.2447346,E,1,35,0.54,439.8764,M,43.9372,M,,*59
$GNGSA,M,3,19,14,03,01,22,17,02,32,10,28,,,0.87,0.54,0.68,1*0C
$GNGSA,M,3,77,86,87,78,79,70,,,,,,,0.87,0.54,0.68,2*09
$GNGSA,M,3,08,03,24,33,26,31,23,,,,,,0.87,0.54,0.68,3*05
$GNGSA,M,3,09,20,29,30,35,32,24,16,41,39,13,06,0.87,0.54,0.68,4*06
$GNZDA,171426.00,08,04,2025,00,00*76
$GNVTG,357.330,T,354.484,M,71.1124,N,131.7002,K,A*00
$GNGST,171426.00,0.718,0.380,0.240,178.393,0.380,0.241,0.560*45
$GNGFA,171426.00,7.8,9.5,0.380,0.240,178.393,0.560,,SCV*00
$GPGGA,171427.00,5851.8078483,N,00545.2429819,E,1,35,0.54,439.7109,M,43.9375,M,,*5B
$GNGSA,M,3,19,14,03,01,22,17,02,32,10,28,,,0.87,0.54,0.68,1*0C
$GNGSA,M,3,77,86,87,78,79,70,,,,,,,0.87,0.54,0.68,2*09
$GNGSA,M,3,08,03,24,33,26,31,23,,,,,,0.87,0.54,0.68,3*05
$GNGSA,M,3,09,20,29,30,35,32,24,16,41,39,13,06,0.87,0.54,0.68,4*06
$GNZDA,171427.00,08,04,2025,00,00*77
$GNVTG,357.301,T,354.455,M,70.2795,N,130.1576,K,A*01
$GNGST,171427.00,0.711,0.377,0.241,177.375,0.377,0.241,0.553*4B
$GNGFA,171427.00,7.5,8.9,0.377,0.241,177.375,0.553,,SCV*0F
$GPGGA,171428.00,5851.8271852,N,00545.2411991,E,1,35,0.54,439.7644,M,43.9378,M,,*56
$GNGSA,M,3,19,14,03,01,22,17,02,32,10,28,,,0.87,0.54,0.68,1*0C
$GNGSA,M,3,77,86,87,78,79,70,,,,,,,0.87,0.54,0.68,2*09
$GNGSA,M,3,08,03,24,33,26,31,23,,,,,,0.87,0.54,0.68,3*05
$GNGSA,M,3,09,20,29,30,35,32,24,16,41,39,13,06,0.87,0.54,0.68,4*06
$GNZDA,171428.00,08,04,2025,00,00*78
$GNVTG,357.262,T,354.416,M,69.4893,N,128.6942,K,A*00
$GNGST,171428.00,0.711,0.377,0.240,177.381,0.377,0.241,0.553*4E
$GNGFA,171428.00,7.5,8.9,0.377,0.240,177.381,0.553,,SCV*0A
$GPGGA,171429.00,5851.8463019,N,00545.2394250,E,1,35,0.54,439.8162,M,43.9382,M,,*50
$GNGSA,M,3,19,14,03,01,22,17,02,32,10,28,,,0.87,0.54,0.68,1*0C
$GNGSA,M,3,77,86,87,78,79,70,,,,,,,0.87,0.54,0.68,2*09
$GNGSA,M,3,08,03,24,33,26,31,23,,,,,,0.87,0.54,0.68,3*05
$GNGSA,M,3,09,20,29,30,35,32,24,16,41,39,13,06,0.87,0.54,0.68,4*06
$GNZDA,171429.00,08,04,2025,00,00*79
$GNVTG,357.340,T,354.494,M,68.7681,N,127.3586,K,A*0A
$GNGST,171429.00,0.729,0.386,0.244,178.115,0.386,0.244,0.568*4D
$GNGFA,171429.00,7.7,9.3,0.386,0.244,178.115,0.568,,SCV*00
$GPGGA,171430.00,5851.8652385,N,00545.2377580,E,1,35,0.54,440.1345,M,43.9385,M,,*5E
$GNGSA,M,3,19,14,03,01,22,17,02,32,10,28,,,0.87,0.54,0.68,1*0C
$GNGSA,M,3,77,86,87,78,79,70,,,,,,,0.87,0.54,0.68,2*09
$GNGSA,M,3,08,03,24,33,26,31,23,,,,,,0.87,0.54,0.68,3*05
$GNGSA,M,3,09,20,29,30,35,32,24,16,41,39,13,06,0.87,0.54,0.68,4*06
$GNZDA,171430.00,08,04,2025,00,00*71
$GNVTG,357.383,T,354.537,M,67.9809,N,125.9006,K,A*07
$GNGST,171430.00,0.713,0.378,0.240,177.394,0.378,0.241,0.554*46
$GNGFA,171430.00,7.5,8.9,0.378,0.240,177.394,0.554,,SCV*0F
$GPGGA,171431.00,5851.8839645,N,00545.2360964,E,1,35,0.54,440.3379,M,43.9388,M,,*55
$GNGSA,M,3,19,14,03,01,22,17,02,32,10,28,,,0.87,0.54,0.68,1*0C
$GNGSA,M,3,77,86,87,78,79,70,,,,,,,0.87,0.54,0.68,2*09
$GNGSA,M,3,08,03,24,33,26,31,23,,,,,,0.87,0.54,0.68,3*05
$GNGSA,M,3,09,20,29,30,35,32,24,16,41,39,13,06,0.87,0.54,0.68,4*06
$GNZDA,171431.00,08,04,2025,00,00*70
$GNVTG,357.215,T,354.369,M,67.2939,N,124.6283,K,A*0C
$GNGST,171431.00,0.712,0.378,0.240,177.404,0.378,0.240,0.554*49
$GNGFA,171431.00,7.5,8.9,0.378,0.240,177.404,0.554,,SCV*00
$GPGGA,171432.00,5851.9024825,N,00545.2343349,E,1,35,0.54,440.4095,M,43.9391,M,,*51
$GNGSA,M,3,19,14,03,01,22,17,02,32,10,28,,,0.87,0.54,0.68,1*0C
$GNGSA,M,3,77,86,87,78,79,70,,,,,,,0.87,0.54,0.68,2*09
$GNGSA,M,3,08,03,24,33,26,31,23,,,,,,0.87,0.54,0.68,3*05
$GNGSA,M,3,09,20,29,30,35,32,24,16,41,39,13,06,0.87,0.54,0.68,4*06
$GNZDA,171432.00,08,04,2025,00,00*73
$GNVTG,357.106,T,354.260,M,66.5523,N,123.2548,K,A*07
$GNGST,171432.00,0.713,0.378,0.240,177.410,0.378,0.240,0.554*4E
$GNGFA,171432.00,7.5,8.8,0.378,0.240,177.410,0.554,,SCV*07
$GPGGA,171433.00,5851.9207952,N,00545.2325454,E,1,35,0.54,440.5791,M,43.9394,M,,*5E
$GNGSA,M,3,19,14,03,01,22,17,02,32,10,28,,,0.87,0.54,0.68,1*0C
$GNGSA,M,3,77,86,87,78,79,70,,,,,,,0.87,0.54,0.68,2*09
$GNGSA,M,3,08,03,24,33,26,31,23,,,,,,0.87,0.54,0.68,3*05
$GNGSA,M,3,09,20,29,30,35,32,24,16,41,39,13,06,0.87,0.54,0.68,4*06
$GNZDA,171433.00,08,04,2025,00,00*72
$GNVTG,357.096,T,354.250,M,65.8266,N,121.9108,K,A*0D
$GNGST,171433.00,0.712,0.378,0.240,177.416,0.378,0.240,0.554*48
$GNGFA,171433.00,7.4,8.8,0.378,0.240,177.416,0.554,,SCV*01
$GPGGA,171434.00,5851.9389184,N,00545.2307303,E,1,35,0.54,440.7110,M,43.9397,M,,*56
$GNGSA,M,3,19,14,03,01,22,17,02,32,10,28,,,0.87,0.54,0.68,1*0C
$GNGSA,M,3,77,86,87,78,79,70,,,,,,,0.87,0.54,0.68,2*09
$GNGSA,M,3,08,03,24,33,26,31,23,,,,,,0.87,0.54,0.68,3*05
$GNGSA,M,3,09,20,29,30,35,32,24,16,41,39,13,06,0.87,0.54,0.68,4*06
$GNZDA,171434.00,08,04,2025,00,00*75
$GNVTG,356.951,T,354.105,M,65.1887,N,120.7294,K,A*08
$GNGST,171434.00,0.713,0.379,0.240,177.421,0.379,0.240,0.554*4A
$GNGFA,171434.00,7.4,8.8,0.379,0.240,177.421,0.554,,SCV*03
$GPGGA,171435.00,5851.9568813,N,00545.2288895,E,1,35,0.54,441.0988,M,43.9400,M,,*5D
$GNGSA,M,3,19,14,03,01,22,17,02,32,10,28,,,0.87,0.54,0.68,1*0C
$GNGSA,M,3,77,86,87,78,79,70,,,,,,,0.87,0.54,0.68,2*09
$GNGSA,M,3,08,03,24,33,26,31,23,,,,,,0.87,0.54,0.68,3*05
$GNGSA,M,3,09,20,29,30,35,32,24,16,41,39,13,06,0.87,0.54,0.68,4*06
$GNZDA,171435.00,08,04,2025,00,00*74
$GNVTG,356.959,T,354.113,M,64.6694,N,119.7677,K,A*0E
$GNGST,171435.00,0.714,0.380,0.240,177.427,0.379,0.240,0.555*4D
$GNGFA,171435.00,7.4,8.8,0.380,0.240,177.427,0.555,,SCV*03
$GPGGA,171436.00,5851.9747076,N,00545.2270394,E,1,35,0.54,441.6703,M,43.9403,M,,*5F
$GNGSA,M,3,19,14,03,01,22,17,02,32,10,28,,,0.87,0.54,0.68,1*0C
$GNGSA,M,3,77,86,87,78,79,70,,,,,,,0.87,0.54,0.68,2*09
$GNGSA,M,3,08,03,24,33,26,31,23,,,,,,0.87,0.54,0.68,3*05
$GNGSA,M,3,09,20,29,30,35,32,24,16,41,39,13,06,0.87,0.54,0.68,4*06
$GNZDA,171436.00,08,04,2025,00,00*77
$GNVTG,356.912,T,354.066,M,64.2558,N,119.0018,K,A*0D
$GNGST,171436.00,0.715,0.380,0.240,177.432,0.380,0.240,0.556*4E
$GNGFA,171436.00,7.4,8.8,0.380,0.240,177.432,0.556,,SCV*07
$GPGGA,171437.00,5851.9924513,N,00545.2251503,E,1,35,0.54,442.1190,M,43.9406,M,,*55
$GNGSA,M,3,19,14,03,01,22,17,02,32,10,28,,,0.87,0.54,0.68,1*0C
$GNGSA,M,3,77,86,87,78,79,70,,,,,,,0.87,0.54,0.68,2*09
$GNGSA,M,3,08,03,24,33,26,31,23,,,,,,0.87,0.54,0.68,3*05
$GNGSA,M,3,09,20,29,30,35,32,24,16,41,39,13,06,0.87,0.54,0.68,4*06
$GNZDA,171437.00,08,04,2025,00,00*76
$GNVTG,356.814,T,353.969,M,64.0868,N,118.6887,K,A*0E
$GNGST,171437.00,0.718,0.382,0.241,177.437,0.382,0.241,0.558*49
$GNGFA,171437.00,7.4,8.8,0.382,0.241,177.437,0.558,,SCV*0E
$GPGGA,171438.00,5852.0101812,N,00545.2232612,E,1,35,0.54,442.6224,M,43.9409,M,,*51
$GNGSA,M,3,19,14,03,01,22,17,02,32,10,28,,,0.87,0.54,0.68,1*0C
$GNGSA,M,3,77,86,87,78,79,70,,,,,,,0.87,0.54,0.68,2*09
$GNGSA,M,3,08,03,24,33,26,31,23,,,,,,0.87,0.54,0.68,3*05
$GNGSA,M,3,09,20,29,30,35,32,24,16,41,39,13,06,0.87,0.54,0.68,4*06
$GNZDA,171438.00,08,04,2025,00,00*79
$GNVTG,356.866,T,354.021,M,64.1718,N,118.8461,K,A*0A
$GNGST,171438.00,0.719,0.383,0.241,177.442,0.382,0.241,0.559*45
$GNGFA,171438.00,7.4,8.8,0.383,0.241,177.442,0.559,,SCV*03
$GPGGA,171439.00,5852.0279125,N,00545.2214187,E,1,34,0.57,442.9736,M,43.9412,M,,*5F
$GNGSA,M,3,19,14,03,01,22,17,02,32,10,28,,,0.89,0.57,0.68,1*01
$GNGSA,M,3,77,86,87,78,79,70,,,,,,,0.89,0.57,0.68,2*04
$GNGSA,M,3,08,03,24,33,26,31,23,,,,,,0.89,0.57,0.68,3*08
$GNGSA,M,3,09,20,29,35,32,24,16,41,39,13,06,,0.89,0.57,0.68,4*08
$GNZDA,171439.00,08,04,2025,00,00*78
$GNVTG,356.918,T,354.072,M,64.4015,N,119.2716,K,A*03
$GNGST,171439.00,0.730,0.393,0.241,176.574,0.393,0.242,0.566*44
$GNGFA,171439.00,8.2,9.2,0.393,0.241,176.574,0.566,,SCV*08
$GPGGA,171440.00,5852.0457658,N,00545.2196263,E,1,34,0.57,443.2718,M,43.9415,M,,*57
$GNGSA,M,3,19,14,03,01,22,17,02,32,10,28,,,0.89,0.57,0.68,1*01
$GNGSA,M,3,77,86,87,78,79,70,,,,,,,0.89,0.57,0.68,2*04
$GNGSA,M,3,08,03,24,33,26,31,23,,,,,,0.89,0.57,0.68,3*08
$GNGSA,M,3,09,20,29,35,32,24,16,41,39,13,06,,0.89,0.57,0.68,4*08
$GNZDA,171440.00,08,04,2025,00,00*76
$GNVTG,357.108,T,354.262,M,64.6662,N,119.7618,K,A*06
$GNGST,171440.00,0.731,0.394,0.241,176.580,0.393,0.242,0.567*46
$GNGFA,171440.00,8.2,9.2,0.394,0.241,176.580,0.567,,SCV*0B
$GPGGA,171441.00,5852.0636941,N,00545.2178834,E,1,34,0.57,443.3308,M,43.9418,M,,*55
$GNGSA,M,3,19,14,03,01,22,17,02,32,10,28,,,0.89,0.57,0.68,1*01
$GNGSA,M,3,77,86,87,78,79,70,,,,,,,0.89,0.57,0.68,2*04
$GNGSA,M,3,08,03,24,33,26,31,23,,,,,,0.89,0.57,0.68,3*08
$GNGSA,M,3,09,20,29,35,32,24,16,41,39,13,06,,0.89,0.57,0.68,4*08
$GNZDA,171441.00,08,04,2025,00,00*77
$GNVTG,357.124,T,354.278,M,64.9230,N,120.2375,K,A*0E
$GNGST,171441.00,0.732,0.395,0.241,176.585,0.394,0.242,0.568*48
$GNGFA,171441.00,8.2,9.2,0.395,0.241,176.585,0.568,,SCV*01
$GPGGA,171442.00,5852.0816843,N,00545.2161112,E,1,34,0.57,442.9502,M,43.9421,M,,*51
$GNGSA,M,3,19,14,03,01,22,17,02,32,10,28,,,0.89,0.57,0.68,1*01
$GNGSA,M,3,77,86,87,78,79,70,,,,,,,0.89,0.57,0.68,2*04
$GNGSA,M,3,08,03,24,33,26,31,23,,,,,,0.89,0.57,0.68,3*08
$GNGSA,M,3,09,20,29,35,32,24,16,41,39,13,06,,0.89,0.57,0.68,4*08
$GNZDA,171442.00,08,04,2025,00,00*74
$GNVTG,356.999,T,354.154,M,65.1277,N,120.6165,K,A*01
$GNGST,171442.00,0.734,0.395,0.241,176.549,0.395,0.242,0.569*4D
$GNGFA,171442.00,8.2,9.2,0.395,0.241,176.549,0.569,,SCV*03
$GPGGA,171443.00,5852.0997180,N,00545.2142802,E,1,34,0.57,442.0563,M,43.9424,M,,*5C
$GNGSA,M,3,19,14,03,01,22,17,02,32,10,28,,,0.89,0.57,0.68,1*01
$GNGSA,M,3,77,86,87,78,79,70,,,,,,,0.89,0.57,0.68,2*04
$GNGSA,M,3,08,03,24,33,26,31,23,,,,,,0.89,0.57,0.68,3*08
$GNGSA,M,3,09,20,29,35,32,24,16,41,39,13,06,,0.89,0.57,0.68,4*08
$GNZDA,171443.00,08,04,2025,00,00*75
$GNVTG,356.912,T,354.067,M,65.2397,N,120.8240,K,A*05
$GNGST,171443.00,0.734,0.396,0.241,176.554,0.395,0.242,0.570*4B
$GNGFA,171443.00,8.2,9.2,0.396,0.241,176.554,0.570,,SCV*05
$GPGGA,171444.00,5852.1177806,N,00545.2123737,E,1,34,0.57,440.8292,M,43.9427,M,,*55
$GNGSA,M,3,19,14,03,01,22,17,02,32,10,28,,,0.89,0.57,0.68,1*01
$GNGSA,M,3,77,86,87,78,79,70,,,,,,,0.89,0.57,0.68,2*04
$GNGSA,M,3,08,03,24,33,26,31,23,,,,,,0.89,0.57,0.68,3*08
$GNGSA,M,3,09,20,29,35,32,24,16,41,39,13,06,,0.89,0.57,0.68,4*08
$GNZDA,171444.00,08,04,2025,00,00*72
$GNVTG,356.782,T,353.937,M,65.3070,N,120.9485,K,A*0C
$GNGST,171444.00,0.734,0.396,0.241,176.558,0.396,0.242,0.569*4B
$GNGFA,171444.00,8.2,9.2,0.396,0.241,176.558,0.569,,SCV*06
$GPGGA,171445.00,5852.1358530,N,00545.2104321,E,1,34,0.57,439.4599,M,43.9430,M,,*5D
$GNGSA,M,3,19,14,03,01,22,17,02,32,10,28,,,0.89,0.57,0.68,1*01
$GNGSA,M,3,77,86,87,78,79,70,,,,,,,0.89,0.57,0.68,2*04
$GNGSA,M,3,08,03,24,33,26,31,23,,,,,,0.89,0.57,0.68,3*08
$GNGSA,M,3,09,20,29,35,32,24,16,41,39,13,06,,0.89,0.57,0.68,4*08
$GNZDA,171445.00,08,04,2025,00,00*73
$GNVTG,356.778,T,353.933,M,65.2865,N,120.9107,K,A*0F
$GNGST,171445.00,0.735,0.396,0.241,176.563,0.396,0.242,0.570*4B
$GNGFA,171445.00,8.2,9.2,0.396,0.241,176.563,0.570,,SCV*07
$GPGGA,171446.00,5852.1539103,N,00545.2085042,E,1,34,0.57,437.9520,M,43.9433,M,,*57
$GNGSA,M,3,19,14,03,01,22,17,02,32,10,28,,,0.89,0.57,0.68,1*01
$GNGSA,M,3,77,86,87,78,79,70,,,,,,,0.89,0.57,0.68,2*04
$GNGSA,M,3,08,03,24,33,26,31,23,,,,,,0.89,0.57,0.68,3*08
$GNGSA,M,3,09,20,29,35,32,24,16,41,39,13,06,,0.89,0.57,0.68,4*08
$GNZDA,171446.00,08,04,2025,00,00*70
$GNVTG,356.844,T,353.998,M,65.2170,N,120.7819,K,A*0B
$GNGST,171446.00,0.735,0.397,0.241,176.567,0.397,0.241,0.570*4F
$GNGFA,171446.00,8.2,9.2,0.397,0.241,176.567,0.570,,SCV*01
$GPGGA,171447.00,5852.1719412,N,00545.2066177,E,1,34,0.57,436.2956,M,43.9436,M,,*5B
$GNGSA,M,3,19,14,03,01,22,17,02,32,10,28,,,0.89,0.57,0.68,1*01
$GNGSA,M,3,77,86,87,78,79,70,,,,,,,0.89,0.57,0.68,2*04
$GNGSA,M,3,08,03,24,33,26,31,23,,,,,,0.89,0.57,0.68,3*08
$GNGSA,M,3,09,20,29,35,32,24,16,41,39,13,06,,0.89,0.57,0.68,4*08
$GNZDA,171447.00,08,04,2025,00,00*71
$GNVTG,356.883,T,354.038,M,65.0995,N,120.5642,K,A*07
$GNGST,171447.00,0.735,0.397,0.240,176.571,0.397,0.241,0.570*48
$GNGFA,171447.00,8.2,9.2,0.397,0.240,176.571,0.570,,SCV*06
$GPGGA,171448.00,5852.1899360,N,00545.2047449,E,1,34,0.57,434.4073,M,43.9439,M,,*5F
$GNGSA,M,3,19,14,03,01,22,17,02,32,10,28,,,0.89,0.57,0.68,1*01
$GNGSA,M,3,77,86,87,78,79,70,,,,,,,0.89,0.57,0.68,2*04
$GNGSA,M,3,08,03,24,33,26,31,23,,,,,,0.89,0.57,0.68,3*08
$GNGSA,M,3,09,20,29,35,32,24,16,41,39,13,06,,0.89,0.57,0.68,4*08
$GNZDA,171448.00,08,04,2025,00,00*7E
$GNVTG,356.907,T,354.062,M,64.9267,N,120.2442,K,A*0E
$GNGST,171448.00,0.735,0.397,0.240,176.575,0.397,0.241,0.570*43
$GNGFA,171448.00,8.1,9.2,0.397,0.240,176.575,0.570,,SCV*0E
$GPGGA,171449.00,5852.2078740,N,00545.2028605,E,1,34,0.57,432.4011,M,43.9442,M,,*51
$GNGSA,M,3,19,14,03,01,22,17,02,32,10,28,,,0.89,0.57,0.68,1*01
$GNGSA,M,3,77,86,87,78,79,70,,,,,,,0.89,0.57,0.68,2*04
$GNGSA,M,3,08,03,24,33,26,31,23,,,,,,0.89,0.57,0.68,3*08
$GNGSA,M,3,09,20,29,35,32,24,16,41,39,13,06,,0.89,0.57,0.68,4*08
$GNZDA,171449.00,08,04,2025,00,00*7F
$GNVTG,356.853,T,354.007,M,64.7580,N,119.9318,K,A*04
$GNGST,171449.00,0.735,0.397,0.240,176.578,0.397,0.241,0.570*4F
$GNGFA,171449.00,8.1,9.2,0.397,0.240,176.578,0.570,,SCV*02
$GPGGA,171450.00,5852.2257604,N,00545.2009500,E,1,34,0.57,430.3809,M,43.9445,M,,*51
$GNGSA,M,3,19,14,03,01,22,17,02,32,10,28,,,0.89,0.57,0.68,1*01
$GNGSA,M,3,77,86,87,78,79,70,,,,,,,0.89,0.57,0.68,2*04
$GNGSA,M,3,08,03,24,33,26,31,23,,,,,,0.89,0.57,0.68,3*08
$GNGSA,M,3,09,20,29,35,32,24,16,41,39,13,06,,0.89,0.57,0.68,4*08
$GNZDA,171450.00,08,04,2025,00,00*77
$GNVTG,356.868,T,354.022,M,64.5725,N,119.5883,K,A*01
$GNGST,171450.00,0.735,0.397,0.240,176.581,0.397,0.240,0.570*40
$GNGFA,171450.00,8.1,9.1,0.397,0.240,176.581,0.570,,SCV*0F
$GPGGA,171451.00,5852.2436125,N,00545.1990265,E,1,34,0.57,428.3383,M,43.9448,M,,*56
$GNGSA,M,3,19,14,03,01,22,17,02,32,10,28,,,0.89,0.57,0.68,1*01
$GNGSA,M,3,77,86,87,78,79,70,,,,,,,0.89,0.57,0.68,2*04
$GNGSA,M,3,08,03,24,33,26,31,23,,,,,,0.89,0.57,0.68,3*08
$GNGSA,M,3,09,20,29,35,32,24,16,41,39,13,06,,0.89,0.57,0.68,4*08
$GNZDA,171451.00,08,04,2025,00,00*76
$GNVTG,356.802,T,353.957,M,64.4824,N,119.4214,K,A*0B
$GNGST,171451.00,0.735,0.397,0.239,176.580,0.397,0.240,0.570*4E
$GNGFA,171451.00,8.1,9.1,0.397,0.239,176.580,0.570,,SCV*01
$GPGGA,171452.00,5852.2614435,N,00545.1971452,E,1,34,0.57,426.4541,M,43.9451,M,,*57
$GNGSA,M,3,19,14,03,01,22,17,02,32,10,28,,,0.89,0.57,0.68,1*01
$GNGSA,M,3,77,86,87,78,79,70,,,,,,,0.89,0.57,0.68,2*04
$GNGSA,M,3,08,03,24,33,26,31,23,,,,,,0.89,0.57,0.68,3*08
$GNGSA,M,3,09,20,29,35,32,24,16,41,39,13,06,,0.89,0.57,0.68,4*08
$GNZDA,171452.00,08,04,2025,00,00*75
$GNVTG,356.881,T,354.036,M,64.3785,N,119.2290,K,A*00
$GNGST,171452.00,0.736,0.398,0.239,176.583,0.398,0.240,0.571*4C
$GNGFA,171452.00,8.1,9.1,0.398,0.239,176.583,0.571,,SCV*0F
$GPGGA,171453.00,5852.2792533,N,00545.1953066,E,1,34,0.57,424.5797,M,43.9454,M,,*52
$GNGSA,M,3,19,14,03,01,22,17,02,32,10,28,,,0.89,0.57,0.68,1*01
$GNGSA,M,3,77,86,87,78,79,70,,,,,,,0.89,0.57,0.68,2*04
$GNGSA,M,3,08,03,24,33,26,31,23,,,,,,0.89,0.57,0.68,3*08
$GNGSA,M,3,09,20,29,35,32,24,16,41,39,13,06,,0.89,0.57,0.68,4*08
$GNZDA,171453.00,08,04,2025,00,00*74
$GNVTG,356.931,T,354.086,M,64.2764,N,119.0398,K,A*04
$GNGST,171453.00,0.736,0.398,0.239,176.586,0.398,0.240,0.571*48
$GNGFA,171453.00,8.1,9.1,0.398,0.239,176.586,0.571,,SCV*0B
$GPGGA,171454.00,5852.2970328,N,00545.1934810,E,1,34,0.57,422.6630,M,43.9457,M,,*59
$GNGSA,M,3,19,14,03,01,22,17,02,32,10,28,,,0.89,0.57,0.68,1*01
$GNGSA,M,3,77,86,87,78,79,70,,,,,,,0.89,0.57,0.68,2*04
$GNGSA,M,3,08,03,24,33,26,31,23,,,,,,0.89,0.57,0.68,3*08
$GNGSA,M,3,09,20,29,35,32,24,16,41,39,13,06,,0.89,0.57,0.68,4*08
$GNZDA,171454.00,08,04,2025,00,00*73
$GNVTG,356.911,T,354.066,M,64.2020,N,118.9022,K,A*05
$GNGST,171454.00,0.737,0.399,0.239,176.589,0.399,0.240,0.572*42
$GNGFA,171454.00,8.1,9.1,0.399,0.239,176.589,0.572,,SCV*01
